{
   "type": "FeatureCollection",
   "features": [
  {
    "type": "Feature",
    "geometry": {
       "type": "Point",
       "coordinates":  [ -97.36044,30.308019 ]
    },
    "properties": {
    "Operation #":1688733,
    "Agency Number":"",
    "name":"Achieve Learning Child Development Center",
    "Address":"509 M L K DR ",
    "City":"ELGIN",
    "State":"TX",
    "Zip":78621,
    "County":"BASTROP",
    "Phone":"512-281-0616",
    "Type":"Licensed Center - Child Care Program",
    "Status":"Full Permit",
    "Issue Date":"5/29/2019",
    "capacity":27,
    "Accuracy Score":0.33,
    "Accuracy Type":"place",
    "Number":null,
    "Street":"",
    "Unit Type":"",
    "Unit Number":"",
    "City":"Elgin",
    "State":"TX",
    "County":"Bastrop County",
    "Zip":78621,
    "Country":"US",
    "Source":"TIGER/Line® dataset from the US Census Bureau"
    }
  },
  {
    "type": "Feature",
    "geometry": {
       "type": "Point",
       "coordinates":  [ -97.321525,30.128569 ]
    },
    "properties": {
    "Operation #":1188386,
    "Agency Number":"",
    "name":"Bastrop Child Development Center",
    "Address":"603 MESQUITE ST ",
    "City":"BASTROP",
    "State":"TX",
    "Zip":78602,
    "County":"BASTROP",
    "Phone":"512-321-7774",
    "Type":"Licensed Center - Child Care Program",
    "Status":"Full Permit",
    "Issue Date":"2/15/2011",
    "capacity":42,
    "Accuracy Score":1,
    "Accuracy Type":"rooftop",
    "Number":603,
    "Street":"Mesquite St",
    "Unit Type":"",
    "Unit Number":"",
    "City":"Bastrop",
    "State":"TX",
    "County":"Bastrop County",
    "Zip":78602,
    "Country":"US",
    "Source":"Bastrop"
    }
  },
  {
    "type": "Feature",
    "geometry": {
       "type": "Point",
       "coordinates":  [ -97.317107,30.107166 ]
    },
    "properties": {
    "Operation #":1690170,
    "Agency Number":"",
    "name":"Bastrop First YMCA",
    "Address":"609 PECAN ST ",
    "City":"BASTROP",
    "State":"TX",
    "Zip":78602,
    "County":"BASTROP",
    "Phone":"512-236-9622",
    "Type":"Licensed Center - School Age Program",
    "Status":"Full Permit",
    "Issue Date":"11/26/2019",
    "capacity":58,
    "Accuracy Score":1,
    "Accuracy Type":"rooftop",
    "Number":609,
    "Street":"Pecan St",
    "Unit Type":"",
    "Unit Number":"",
    "City":"Bastrop",
    "State":"TX",
    "County":"Bastrop County",
    "Zip":78602,
    "Country":"US",
    "Source":"Capcog"
    }
  },
  {
    "type": "Feature",
    "geometry": {
       "type": "Point",
       "coordinates":  [ -97.430071,30.132387 ]
    },
    "properties": {
    "Operation #":1709800,
    "Agency Number":"",
    "name":"Bastrop ISD Child Care @ Bluebonnet Elementary",
    "Address":"416 FM 1209 ",
    "City":"BASTROP",
    "State":"TX",
    "Zip":78602,
    "County":"BASTROP",
    "Phone":"512-772-7175",
    "Type":"Licensed Center - Child Care Program",
    "Status":"Initial",
    "Issue Date":"8/7/2020",
    "capacity":34,
    "Accuracy Score":1,
    "Accuracy Type":"rooftop",
    "Number":416,
    "Street":"Farm To Market Rd 1209",
    "Unit Type":"",
    "Unit Number":"",
    "City":"Bastrop",
    "State":"TX",
    "County":"Bastrop County",
    "Zip":78602,
    "Country":"US",
    "Source":"Capcog"
    }
  },
  {
    "type": "Feature",
    "geometry": {
       "type": "Point",
       "coordinates":  [ -97.499961,30.084169 ]
    },
    "properties": {
    "Operation #":1512041,
    "Agency Number":"",
    "name":"BISD Community Service STARS Cedar Creek Elementary",
    "Address":"5582 FM 535 ",
    "City":"CEDAR CREEK",
    "State":"TX",
    "Zip":78612,
    "County":"BASTROP",
    "Phone":"512-308-1601",
    "Type":"Licensed Center - School Age Program",
    "Status":"Full Permit",
    "Issue Date":"3/14/2013",
    "capacity":150,
    "Accuracy Score":1,
    "Accuracy Type":"rooftop",
    "Number":5582,
    "Street":"Farm To Market Rd 535",
    "Unit Type":"",
    "Unit Number":"",
    "City":"Cedar Creek",
    "State":"TX",
    "County":"Bastrop County",
    "Zip":78612,
    "Country":"US",
    "Source":"Capcog"
    }
  },
  {
    "type": "Feature",
    "geometry": {
       "type": "Point",
       "coordinates":  [ -97.310167,30.10708 ]
    },
    "properties": {
    "Operation #":1507631,
    "Agency Number":"",
    "name":"BISD Community Services - STARS Emile Elementary School",
    "Address":"601 MARTIN LUTHER KING DR ",
    "City":"BASTROP",
    "State":"TX",
    "Zip":78602,
    "County":"BASTROP",
    "Phone":"512-308-1601",
    "Type":"Licensed Center - School Age Program",
    "Status":"Full Permit",
    "Issue Date":"1/4/2013",
    "capacity":150,
    "Accuracy Score":1,
    "Accuracy Type":"rooftop",
    "Number":601,
    "Street":"Martin Luther King Jr Dr",
    "Unit Type":"",
    "Unit Number":"",
    "City":"Bastrop",
    "State":"TX",
    "County":"Bastrop County",
    "Zip":78602,
    "Country":"US",
    "Source":"Capcog"
    }
  },
  {
    "type": "Feature",
    "geometry": {
       "type": "Point",
       "coordinates":  [ -97.314711,30.113041 ]
    },
    "properties": {
    "Operation #":838904,
    "Agency Number":"",
    "name":"BISD Community Services - STARS Mina Elementary School",
    "Address":"1203 HILL ST ",
    "City":"BASTROP",
    "State":"TX",
    "Zip":78602,
    "County":"BASTROP",
    "Phone":"512-772-7180",
    "Type":"Licensed Center - Before/After School Program",
    "Status":"Full Permit",
    "Issue Date":"6/1/2004",
    "capacity":150,
    "Accuracy Score":1,
    "Accuracy Type":"rooftop",
    "Number":1203,
    "Street":"Hill St",
    "Unit Type":"",
    "Unit Number":"",
    "City":"Bastrop",
    "State":"TX",
    "County":"Bastrop County",
    "Zip":78602,
    "Country":"US",
    "Source":"Capcog"
    }
  },
  {
    "type": "Feature",
    "geometry": {
       "type": "Point",
       "coordinates":  [ -97.451257,29.958806 ]
    },
    "properties": {
    "Operation #":1507635,
    "Agency Number":"",
    "name":"BISD Community Services - STARS Red Rock Elementary",
    "Address":"2401 FM 20 ",
    "City":"RED ROCK",
    "State":"TX",
    "Zip":78662,
    "County":"BASTROP",
    "Phone":"512-308-1601",
    "Type":"Licensed Center - School Age Program",
    "Status":"Full Permit",
    "Issue Date":"1/4/2013",
    "capacity":75,
    "Accuracy Score":1,
    "Accuracy Type":"rooftop",
    "Number":2401,
    "Street":"Farm To Market Rd 20",
    "Unit Type":"",
    "Unit Number":"",
    "City":"Red Rock",
    "State":"TX",
    "County":"Bastrop County",
    "Zip":78662,
    "Country":"US",
    "Source":"Capcog"
    }
  },
  {
    "type": "Feature",
    "geometry": {
       "type": "Point",
       "coordinates":  [ -97.430071,30.132387 ]
    },
    "properties": {
    "Operation #":1507575,
    "Agency Number":"",
    "name":"BISD Community Services STARS Bluebonnet Elementary School",
    "Address":"416 FM 1209 ",
    "City":"BASTROP",
    "State":"TX",
    "Zip":78602,
    "County":"BASTROP",
    "Phone":"512-308-1601",
    "Type":"Licensed Center - School Age Program",
    "Status":"Full Permit",
    "Issue Date":"1/4/2013",
    "capacity":150,
    "Accuracy Score":1,
    "Accuracy Type":"rooftop",
    "Number":416,
    "Street":"Farm To Market Rd 1209",
    "Unit Type":"",
    "Unit Number":"",
    "City":"Bastrop",
    "State":"TX",
    "County":"Bastrop County",
    "Zip":78602,
    "Country":"US",
    "Source":"Capcog"
    }
  },
  {
    "type": "Feature",
    "geometry": {
       "type": "Point",
       "coordinates":  [ -97.280214,30.177341 ]
    },
    "properties": {
    "Operation #":1507629,
    "Agency Number":"",
    "name":"BISD Community Services STARS Lost Pines Elementary School",
    "Address":"151 TIGER WOODS DR ",
    "City":"BASTROP",
    "State":"TX",
    "Zip":78602,
    "County":"BASTROP",
    "Phone":"512-308-1601",
    "Type":"Licensed Center - School Age Program",
    "Status":"Full Permit",
    "Issue Date":"1/4/2013",
    "capacity":75,
    "Accuracy Score":1,
    "Accuracy Type":"rooftop",
    "Number":151,
    "Street":"Tiger Woods Dr",
    "Unit Type":"",
    "Unit Number":"",
    "City":"Bastrop",
    "State":"TX",
    "County":"Bastrop County",
    "Zip":78602,
    "Country":"US",
    "Source":"Capcog"
    }
  },
  {
    "type": "Feature",
    "geometry": {
       "type": "Point",
       "coordinates":  [ -97.499961,30.084169 ]
    },
    "properties": {
    "Operation #":820191,
    "Agency Number":"",
    "name":"BISD District Day Care @ Cedar Creek Elem.",
    "Address":"5582 F M 535 ",
    "City":"CEDAR CREEK",
    "State":"TX",
    "Zip":78612,
    "County":"BASTROP",
    "Phone":"512-332-2677",
    "Type":"Licensed Center - Child Care Program",
    "Status":"Full Permit",
    "Issue Date":"2/20/2003",
    "capacity":34,
    "Accuracy Score":1,
    "Accuracy Type":"rooftop",
    "Number":5582,
    "Street":"Farm To Market Rd 535",
    "Unit Type":"",
    "Unit Number":"M 535",
    "City":"Cedar Creek",
    "State":"TX",
    "County":"Bastrop County",
    "Zip":78612,
    "Country":"US",
    "Source":"Capcog"
    }
  },
  {
    "type": "Feature",
    "geometry": {
       "type": "Point",
       "coordinates":  [ -97.310167,30.10708 ]
    },
    "properties": {
    "Operation #":840553,
    "Agency Number":"",
    "name":"BISD District Day Care @Emile",
    "Address":"601 MARTIN LUTHER KING DR ",
    "City":"BASTROP",
    "State":"TX",
    "Zip":78602,
    "County":"BASTROP",
    "Phone":"512-772-7180",
    "Type":"Licensed Center - Child Care Program",
    "Status":"Full Permit",
    "Issue Date":"1/13/2005",
    "capacity":88,
    "Accuracy Score":1,
    "Accuracy Type":"rooftop",
    "Number":601,
    "Street":"Martin Luther King Jr Dr",
    "Unit Type":"",
    "Unit Number":"",
    "City":"Bastrop",
    "State":"TX",
    "County":"Bastrop County",
    "Zip":78602,
    "Country":"US",
    "Source":"Capcog"
    }
  },
  {
    "type": "Feature",
    "geometry": {
       "type": "Point",
       "coordinates":  [ -97.314806,30.111047 ]
    },
    "properties": {
    "Operation #":862842,
    "Agency Number":"",
    "name":"Busy Bee  Learning Center",
    "Address":"1003 HILL ST ",
    "City":"BASTROP",
    "State":"TX",
    "Zip":78602,
    "County":"BASTROP",
    "Phone":"512-321-3592",
    "Type":"Licensed Center - Child Care Program",
    "Status":"Full Permit",
    "Issue Date":"11/16/2006",
    "capacity":31,
    "Accuracy Score":1,
    "Accuracy Type":"rooftop",
    "Number":1003,
    "Street":"Hill St",
    "Unit Type":"",
    "Unit Number":"",
    "City":"Bastrop",
    "State":"TX",
    "County":"Bastrop County",
    "Zip":78602,
    "Country":"US",
    "Source":"Capcog"
    }
  },
  {
    "type": "Feature",
    "geometry": {
       "type": "Point",
       "coordinates":  [ -97.411807,30.110771 ]
    },
    "properties": {
    "Operation #":1627657,
    "Agency Number":"",
    "name":"Busy Bee Academy",
    "Address":"1116 HIGHWAY 71 W ",
    "City":"BASTROP",
    "State":"TX",
    "Zip":78602,
    "County":"BASTROP",
    "Phone":"",
    "Type":"Licensed Center - Child Care Program",
    "Status":"Full Permit",
    "Issue Date":"1/12/2017",
    "capacity":130,
    "Accuracy Score":0.8,
    "Accuracy Type":"range_interpolation",
    "Number":1116,
    "Street":"State Hwy 71",
    "Unit Type":"",
    "Unit Number":"",
    "City":"Bastrop",
    "State":"TX",
    "County":"Bastrop County",
    "Zip":78602,
    "Country":"US",
    "Source":"TIGER/Line® dataset from the US Census Bureau"
    }
  },
  {
    "type": "Feature",
    "geometry": {
       "type": "Point",
       "coordinates":  [ -97.318046,30.123142 ]
    },
    "properties": {
    "Operation #":1710992,
    "Agency Number":"",
    "name":"Cheryl Kruckeberg",
    "Address":"2000 PECAN ST ",
    "City":"BASTROP",
    "State":"TX",
    "Zip":78602,
    "County":"BASTROP",
    "Phone":"512-626-5018",
    "Type":"Licensed Child-Care Home",
    "Status":"Initial",
    "Issue Date":"8/31/2020",
    "capacity":12,
    "Accuracy Score":1,
    "Accuracy Type":"rooftop",
    "Number":2000,
    "Street":"Pecan St",
    "Unit Type":"",
    "Unit Number":"",
    "City":"Bastrop",
    "State":"TX",
    "County":"Bastrop County",
    "Zip":78602,
    "Country":"US",
    "Source":"Capcog"
    }
  },
  {
    "type": "Feature",
    "geometry": {
       "type": "Point",
       "coordinates":  [ -97.47851,30.092923 ]
    },
    "properties": {
    "Operation #":1709266,
    "Agency Number":"",
    "name":"Children's Town Center",
    "Address":"112 VOSS PKWY ",
    "City":"CEDAR CREEK",
    "State":"TX",
    "Zip":78612,
    "County":"BASTROP",
    "Phone":"512-549-3113",
    "Type":"Licensed Center - Child Care Program",
    "Status":"Initial",
    "Issue Date":"9/4/2020",
    "capacity":48,
    "Accuracy Score":1,
    "Accuracy Type":"rooftop",
    "Number":112,
    "Street":"Voss Pkwy",
    "Unit Type":"",
    "Unit Number":"",
    "City":"Cedar Creek",
    "State":"TX",
    "County":"Bastrop County",
    "Zip":78612,
    "Country":"US",
    "Source":"Capcog"
    }
  },
  {
    "type": "Feature",
    "geometry": {
       "type": "Point",
       "coordinates":  [ -97.358739,30.074895 ]
    },
    "properties": {
    "Operation #":1696841,
    "Agency Number":"",
    "name":"Cornerstone Christian Academy",
    "Address":"125 LOWER RED ROCK RD ",
    "City":"BASTROP",
    "State":"TX",
    "Zip":78602,
    "County":"BASTROP",
    "Phone":"512-718-4212",
    "Type":"Licensed Center - Child Care Program",
    "Status":"Full Permit",
    "Issue Date":"3/5/2020",
    "capacity":34,
    "Accuracy Score":1,
    "Accuracy Type":"rooftop",
    "Number":125,
    "Street":"Lower Red Rock Rd",
    "Unit Type":"",
    "Unit Number":"",
    "City":"Bastrop",
    "State":"TX",
    "County":"Bastrop County",
    "Zip":78602,
    "Country":"US",
    "Source":"Capcog"
    }
  },
  {
    "type": "Feature",
    "geometry": {
       "type": "Point",
       "coordinates":  [ -97.37793,30.352223 ]
    },
    "properties": {
    "Operation #":840589,
    "Agency Number":"",
    "name":"Elgin ISD Child Development Center",
    "Address":"1002 N AVENUE C ",
    "City":"ELGIN",
    "State":"TX",
    "Zip":78621,
    "County":"BASTROP",
    "Phone":"512-281-9797",
    "Type":"Licensed Center - Child Care Program",
    "Status":"Full Permit",
    "Issue Date":"12/28/2004",
    "capacity":90,
    "Accuracy Score":1,
    "Accuracy Type":"rooftop",
    "Number":1002,
    "Street":"N Ave C",
    "Unit Type":"",
    "Unit Number":"",
    "City":"Elgin",
    "State":"TX",
    "County":"Bastrop County",
    "Zip":78621,
    "Country":"US",
    "Source":"Capcog"
    }
  },
  {
    "type": "Feature",
    "geometry": {
       "type": "Point",
       "coordinates":  [ -97.310167,30.10708 ]
    },
    "properties": {
    "Operation #":1358412,
    "Agency Number":"",
    "name":"Emile Head Start Center",
    "Address":"601 MARTIN LUTHER KING DR ",
    "City":"BASTROP",
    "State":"TX",
    "Zip":78602,
    "County":"BASTROP",
    "Phone":"512-303-7737",
    "Type":"Licensed Center - Child Care Program",
    "Status":"Full Permit",
    "Issue Date":"2/13/2012",
    "capacity":37,
    "Accuracy Score":1,
    "Accuracy Type":"rooftop",
    "Number":601,
    "Street":"Martin Luther King Jr Dr",
    "Unit Type":"",
    "Unit Number":"",
    "City":"Bastrop",
    "State":"TX",
    "County":"Bastrop County",
    "Zip":78602,
    "Country":"US",
    "Source":"Capcog"
    }
  },
  {
    "type": "Feature",
    "geometry": {
       "type": "Point",
       "coordinates":  [ -97.155129,30.007182 ]
    },
    "properties": {
    "Operation #":900008,
    "Agency Number":"",
    "name":"FBC Sonshine School",
    "Address":"304 HUDGINS ST ",
    "City":"SMITHVILLE",
    "State":"TX",
    "Zip":78957,
    "County":"BASTROP",
    "Phone":"512-237-3000",
    "Type":"Licensed Center - Child Care Program",
    "Status":"Full Permit",
    "Issue Date":"1/20/2009",
    "capacity":110,
    "Accuracy Score":1,
    "Accuracy Type":"rooftop",
    "Number":304,
    "Street":"Hudgins St",
    "Unit Type":"",
    "Unit Number":"",
    "City":"Smithville",
    "State":"TX",
    "County":"Bastrop County",
    "Zip":78957,
    "Country":"US",
    "Source":"Bastrop"
    }
  },
  {
    "type": "Feature",
    "geometry": {
       "type": "Point",
       "coordinates":  [ -97.148576,30.005031 ]
    },
    "properties": {
    "Operation #":833919,
    "Agency Number":"",
    "name":"Grace Lutheran Learning Center",
    "Address":"401 WILKES ST ",
    "City":"SMITHVILLE",
    "State":"TX",
    "Zip":78957,
    "County":"BASTROP",
    "Phone":"512-360-2800",
    "Type":"Licensed Center - Child Care Program",
    "Status":"Full Permit",
    "Issue Date":"11/6/2003",
    "capacity":88,
    "Accuracy Score":1,
    "Accuracy Type":"rooftop",
    "Number":401,
    "Street":"Wilkes St",
    "Unit Type":"",
    "Unit Number":"",
    "City":"Smithville",
    "State":"TX",
    "County":"Bastrop County",
    "Zip":78957,
    "Country":"US",
    "Source":"Capcog"
    }
  },
  {
    "type": "Feature",
    "geometry": {
       "type": "Point",
       "coordinates":  [ -97.319051,30.112908 ]
    },
    "properties": {
    "Operation #":111750,
    "Agency Number":"",
    "name":"Hideout Christian Learning Center",
    "Address":"1202 WATER ST ",
    "City":"BASTROP",
    "State":"TX",
    "Zip":78602,
    "County":"BASTROP",
    "Phone":"512-303-2603",
    "Type":"Licensed Center - Child Care Program",
    "Status":"Full Permit",
    "Issue Date":"6/27/1987",
    "capacity":128,
    "Accuracy Score":1,
    "Accuracy Type":"rooftop",
    "Number":1202,
    "Street":"Water St",
    "Unit Type":"",
    "Unit Number":"",
    "City":"Bastrop",
    "State":"TX",
    "County":"Bastrop County",
    "Zip":78602,
    "Country":"US",
    "Source":"Capcog"
    }
  },
  {
    "type": "Feature",
    "geometry": {
       "type": "Point",
       "coordinates":  [ -97.451201,30.12467 ]
    },
    "properties": {
    "Operation #":1649512,
    "Agency Number":"",
    "name":"Honeysuckle Schoolhouse",
    "Address":"434 LEISURE LN # AB",
    "City":"CEDAR CREEK",
    "State":"TX",
    "Zip":78612,
    "County":"BASTROP",
    "Phone":"512-689-5758",
    "Type":"Licensed Child-Care Home",
    "Status":"Full Permit",
    "Issue Date":"9/18/2017",
    "capacity":12,
    "Accuracy Score":1,
    "Accuracy Type":"rooftop",
    "Number":434,
    "Street":"Leisure Ln",
    "Unit Type":"Unit",
    "Unit Number":"AB",
    "City":"Cedar Creek",
    "State":"TX",
    "County":"Bastrop County",
    "Zip":78612,
    "Country":"US",
    "Source":"Capcog"
    }
  },
  {
    "type": "Feature",
    "geometry": {
       "type": "Point",
       "coordinates":  [ -97.329101,30.105139 ]
    },
    "properties": {
    "Operation #":1260869,
    "Agency Number":"",
    "name":"Little Sheep Learning Center",
    "Address":"202 HIGHWAY 71 W ",
    "City":"BASTROP",
    "State":"TX",
    "Zip":78602,
    "County":"BASTROP",
    "Phone":"512-988-1778",
    "Type":"Licensed Center - Child Care Program",
    "Status":"Full Permit",
    "Issue Date":"6/10/2011",
    "capacity":115,
    "Accuracy Score":0.9,
    "Accuracy Type":"range_interpolation",
    "Number":202,
    "Street":"State Hwy 21",
    "Unit Type":"",
    "Unit Number":"",
    "City":"Bastrop",
    "State":"TX",
    "County":"Bastrop County",
    "Zip":78602,
    "Country":"US",
    "Source":"TIGER/Line® dataset from the US Census Bureau"
    }
  },
  {
    "type": "Feature",
    "geometry": {
       "type": "Point",
       "coordinates":  [ -97.280214,30.177341 ]
    },
    "properties": {
    "Operation #":841188,
    "Agency Number":"",
    "name":"Lost Pines Head Start Program",
    "Address":"151 TIGER WOODS DR ",
    "City":"BASTROP",
    "State":"TX",
    "Zip":78602,
    "County":"BASTROP",
    "Phone":"512-308-9129",
    "Type":"Licensed Center - Child Care Program",
    "Status":"Full Permit",
    "Issue Date":"2/24/2005",
    "capacity":40,
    "Accuracy Score":1,
    "Accuracy Type":"rooftop",
    "Number":151,
    "Street":"Tiger Woods Dr",
    "Unit Type":"",
    "Unit Number":"",
    "City":"Bastrop",
    "State":"TX",
    "County":"Bastrop County",
    "Zip":78602,
    "Country":"US",
    "Source":"Capcog"
    }
  },
  {
    "type": "Feature",
    "geometry": {
       "type": "Point",
       "coordinates":  [ -97.400286,30.362781 ]
    },
    "properties": {
    "Operation #":839379,
    "Agency Number":"",
    "name":"Mabrys Munchkins Learning Center",
    "Address":"1512 N AVENUE C ",
    "City":"ELGIN",
    "State":"TX",
    "Zip":78621,
    "County":"BASTROP",
    "Phone":"512-281-0800",
    "Type":"Licensed Center - Child Care Program",
    "Status":"Full Permit",
    "Issue Date":"12/17/2004",
    "capacity":68,
    "Accuracy Score":1,
    "Accuracy Type":"rooftop",
    "Number":1512,
    "Street":"N Ave C",
    "Unit Type":"",
    "Unit Number":"",
    "City":"Elgin",
    "State":"TX",
    "County":"Bastrop County",
    "Zip":78621,
    "Country":"US",
    "Source":"Capcog"
    }
  },
  {
    "type": "Feature",
    "geometry": {
       "type": "Point",
       "coordinates":  [ -97.342952,30.33548 ]
    },
    "properties": {
    "Operation #":249641,
    "Agency Number":"",
    "name":"Morgans Day Care",
    "Address":"1126 OLD MCDADE RD ",
    "City":"ELGIN",
    "State":"TX",
    "Zip":78621,
    "County":"BASTROP",
    "Phone":"512-281-4566",
    "Type":"Licensed Child-Care Home",
    "Status":"Full Permit",
    "Issue Date":"1/8/1993",
    "capacity":12,
    "Accuracy Score":1,
    "Accuracy Type":"rooftop",
    "Number":1126,
    "Street":"Old Mcdade Rd",
    "Unit Type":"",
    "Unit Number":"",
    "City":"Elgin",
    "State":"TX",
    "County":"Bastrop County",
    "Zip":78621,
    "Country":"US",
    "Source":"Capcog"
    }
  },
  {
    "type": "Feature",
    "geometry": {
       "type": "Point",
       "coordinates":  [ -97.380312,30.3438 ]
    },
    "properties": {
    "Operation #":1694926,
    "Agency Number":"",
    "name":"New Beginnings Child Development Cntr. LLC",
    "Address":"700 BULL RUN ",
    "City":"ELGIN",
    "State":"TX",
    "Zip":78621,
    "County":"BASTROP",
    "Phone":"512-285-6337",
    "Type":"Licensed Center - Child Care Program",
    "Status":"Full Permit",
    "Issue Date":"3/6/2020",
    "capacity":81,
    "Accuracy Score":1,
    "Accuracy Type":"rooftop",
    "Number":700,
    "Street":"Bull Run Rd",
    "Unit Type":"",
    "Unit Number":"",
    "City":"Elgin",
    "State":"TX",
    "County":"Bastrop County",
    "Zip":78621,
    "Country":"US",
    "Source":"Capcog"
    }
  },
  {
    "type": "Feature",
    "geometry": {
       "type": "Point",
       "coordinates":  [ -97.285758,30.09669 ]
    },
    "properties": {
    "Operation #":1319027,
    "Agency Number":"",
    "name":"Robin LeFrance",
    "Address":"122 KUKUI CT ",
    "City":"BASTROP",
    "State":"TX",
    "Zip":78602,
    "County":"BASTROP",
    "Phone":"512-332-6916",
    "Type":"Registered Child-Care Home",
    "Status":"Registered",
    "Issue Date":"7/29/2011",
    "capacity":12,
    "Accuracy Score":1,
    "Accuracy Type":"rooftop",
    "Number":122,
    "Street":"Kukui Ct",
    "Unit Type":"",
    "Unit Number":"",
    "City":"Bastrop",
    "State":"TX",
    "County":"Bastrop County",
    "Zip":78602,
    "Country":"US",
    "Source":"Capcog"
    }
  },
  {
    "type": "Feature",
    "geometry": {
       "type": "Point",
       "coordinates":  [ -97.594434,30.103999 ]
    },
    "properties": {
    "Operation #":244917,
    "Agency Number":"",
    "name":"Sharon Clark",
    "Address":"125 MEADOW VIEW BLVD ",
    "City":"DEL VALLE",
    "State":"TX",
    "Zip":78617,
    "County":"BASTROP",
    "Phone":"512-247-5844",
    "Type":"Registered Child-Care Home",
    "Status":"Registered",
    "Issue Date":"8/19/1997",
    "capacity":12,
    "Accuracy Score":1,
    "Accuracy Type":"rooftop",
    "Number":125,
    "Street":"Meadow View Blvd",
    "Unit Type":"",
    "Unit Number":"",
    "City":"Del Valle",
    "State":"TX",
    "County":"Bastrop County",
    "Zip":78617,
    "Country":"US",
    "Source":"Capcog"
    }
  },
  {
    "type": "Feature",
    "geometry": {
       "type": "Point",
       "coordinates":  [ -97.171436,30.009874 ]
    },
    "properties": {
    "Operation #":139550,
    "Agency Number":"",
    "name":"Smithville Head Start",
    "Address":"308 SW 4TH ST ",
    "City":"SMITHVILLE",
    "State":"TX",
    "Zip":78957,
    "County":"BASTROP",
    "Phone":"512-237-4449",
    "Type":"Licensed Center - Child Care Program",
    "Status":"Full Permit",
    "Issue Date":"1/12/1994",
    "capacity":37,
    "Accuracy Score":0.7,
    "Accuracy Type":"rooftop",
    "Number":308,
    "Street":"4th Ave",
    "Unit Type":"",
    "Unit Number":"",
    "City":"Smithville",
    "State":"TX",
    "County":"Bastrop County",
    "Zip":78957,
    "Country":"US",
    "Source":"Capcog"
    }
  },
  {
    "type": "Feature",
    "geometry": {
       "type": "Point",
       "coordinates":  [ -97.566581,30.135361 ]
    },
    "properties": {
    "Operation #":505171,
    "Agency Number":"",
    "name":"Stony Point Head Start Ctr",
    "Address":"108 POINT DR ",
    "City":"DEL VALLE",
    "State":"TX",
    "Zip":78617,
    "County":"BASTROP",
    "Phone":"512-247-5530",
    "Type":"Licensed Center - Child Care Program",
    "Status":"Full Permit",
    "Issue Date":"5/25/1995",
    "capacity":60,
    "Accuracy Score":1,
    "Accuracy Type":"rooftop",
    "Number":108,
    "Street":"Point Dr",
    "Unit Type":"",
    "Unit Number":"",
    "City":"Del Valle",
    "State":"TX",
    "County":"Bastrop County",
    "Zip":78617,
    "Country":"US",
    "Source":"Capcog"
    }
  },
  {
    "type": "Feature",
    "geometry": {
       "type": "Point",
       "coordinates":  [ -97.426134,30.110624 ]
    },
    "properties": {
    "Operation #":863455,
    "Agency Number":"",
    "name":"Sweetpea Learning Center",
    "Address":"104 UNION CHAPEL RD ",
    "City":"CEDAR CREEK",
    "State":"TX",
    "Zip":78612,
    "County":"BASTROP",
    "Phone":"512-303-5511",
    "Type":"Licensed Center - Child Care Program",
    "Status":"Full Permit",
    "Issue Date":"8/10/2006",
    "capacity":62,
    "Accuracy Score":1,
    "Accuracy Type":"rooftop",
    "Number":104,
    "Street":"Union Chapel Rd",
    "Unit Type":"",
    "Unit Number":"",
    "City":"Cedar Creek",
    "State":"TX",
    "County":"Bastrop County",
    "Zip":78612,
    "Country":"US",
    "Source":"Capcog"
    }
  },
  {
    "type": "Feature",
    "geometry": {
       "type": "Point",
       "coordinates":  [ -97.315443,30.10438 ]
    },
    "properties": {
    "Operation #":1674673,
    "Agency Number":"",
    "name":"Terri's Tiny Tots Learning Center",
    "Address":"1007 COLLEGE ST ",
    "City":"BASTROP",
    "State":"TX",
    "Zip":78602,
    "County":"BASTROP",
    "Phone":"512-767-0912",
    "Type":"Licensed Center - Child Care Program",
    "Status":"Full Permit",
    "Issue Date":"9/25/2018",
    "capacity":21,
    "Accuracy Score":1,
    "Accuracy Type":"rooftop",
    "Number":1007,
    "Street":"College St",
    "Unit Type":"",
    "Unit Number":"",
    "City":"Bastrop",
    "State":"TX",
    "County":"Bastrop County",
    "Zip":78602,
    "Country":"US",
    "Source":"Capcog"
    }
  },
  {
    "type": "Feature",
    "geometry": {
       "type": "Point",
       "coordinates":  [ -97.353334,30.338508 ]
    },
    "properties": {
    "Operation #":539542,
    "Agency Number":"",
    "name":"Tree House Incorporated",
    "Address":"989 OLD MCDADE RD ",
    "City":"ELGIN",
    "State":"TX",
    "Zip":78621,
    "County":"BASTROP",
    "Phone":"512-285-5437",
    "Type":"Licensed Center - Child Care Program",
    "Status":"Full Permit",
    "Issue Date":"3/25/1999",
    "capacity":135,
    "Accuracy Score":1,
    "Accuracy Type":"rooftop",
    "Number":989,
    "Street":"Old Mcdade Rd",
    "Unit Type":"",
    "Unit Number":"",
    "City":"Elgin",
    "State":"TX",
    "County":"Bastrop County",
    "Zip":78621,
    "Country":"US",
    "Source":"Capcog"
    }
  },
  {
    "type": "Feature",
    "geometry": {
       "type": "Point",
       "coordinates":  [ -97.347544,30.115339 ]
    },
    "properties": {
    "Operation #":1511507,
    "Agency Number":"",
    "name":"Wee Care Learning Center",
    "Address":"159 SETTLEMENT DR ",
    "City":"BASTROP",
    "State":"TX",
    "Zip":78602,
    "County":"BASTROP",
    "Phone":"512-718-7057",
    "Type":"Licensed Center - Child Care Program",
    "Status":"Full Permit",
    "Issue Date":"3/19/2013",
    "capacity":328,
    "Accuracy Score":1,
    "Accuracy Type":"rooftop",
    "Number":159,
    "Street":"Settlement Dr",
    "Unit Type":"",
    "Unit Number":"",
    "City":"Bastrop",
    "State":"TX",
    "County":"Bastrop County",
    "Zip":78602,
    "Country":"US",
    "Source":"Capcog"
    }
  },
  {
    "type": "Feature",
    "geometry": {
       "type": "Point",
       "coordinates":  [ -97.430427,30.128792 ]
    },
    "properties": {
    "Operation #":833403,
    "Agency Number":"",
    "name":"Wiggles n Giggles Child Development Center LLC",
    "Address":"374 F M 1209 ",
    "City":"BASTROP",
    "State":"TX",
    "Zip":78602,
    "County":"BASTROP",
    "Phone":"512-581-9211",
    "Type":"Licensed Center - Child Care Program",
    "Status":"Full Permit",
    "Issue Date":"4/21/2004",
    "capacity":50,
    "Accuracy Score":1,
    "Accuracy Type":"rooftop",
    "Number":374,
    "Street":"Farm To Market Rd 1209",
    "Unit Type":"",
    "Unit Number":"M 1209",
    "City":"Bastrop",
    "State":"TX",
    "County":"Bastrop County",
    "Zip":78602,
    "Country":"US",
    "Source":"Capcog"
    }
  }
]
}